{
  "cities": [
    {
      "kiev": "Киев"
    },
    {
      "kharkov": "Харьков"
    },
    {
      "odessa": "Одесса"
    }
  ],
  "address": [
    {
      "kiev": [
        {
          "id": 0,
          "name": "ТРЦ «Ocean Plaza»",
          "address": "Ст. м. «Лыбедская»,\u2028бульвар Дружбы Народов, 3-А",
          "pickup": "Возможен самовывоз",
          "phone": "044 284-50-80",
          "work-time": "Пн-Пт 09:00–20:00\nСб-Вс 10:00–18:00",
          "position": {
            "lat": 50.41309689773756, "lng": 30.523721706316234
          }
        },
        {
          "id": 1,
          "name": "Ст. м. «Минская»",
          "address": "проспект Оболонский, 16",
          "pickup": null,
          "phone": "055 284-50-80",
          "work-time": "Пн-Пт 09:00–20:00",
          "position": {
            "lat": 50.512426189589796, "lng": 30.498550998141425
          }
        },
        {
          "id": 2,
          "name": "ТРЦ «Квадрат»",
          "address": "бульвар Перова, 36",
          "pickup": "Возможен самовывоз",
          "phone": "099 284-33-00",
          "work-time": "Пн-Пт 09:00–20:00\nСб-Вс 10:00–18:00",
          "position": {
            "lat": 50.48501218399716, "lng": 30.59508182719324
          }
        }

      ]
    },
    {
      "kharkov": [
        {
          "name": "ТРЦ Дафі (Харків)",
          "address": "вулиця Героїв Праці, 9, Харків, Харківська область",
          "pickup": "Возможен самовывоз",
          "phone": "0577282508",
          "work-time": "Пн-Пт 10:00–20:00",
          "position": {
            "lat": 50.02787415736154, "lng": 36.331413284662645
          }
        },
        {
          "name": "Ave Plaza",
          "address": "вулиця Сумська, 10, Харків, Харківська область",
          "pickup": null,
          "phone": "0442245404",
          "work-time": "Пн-Пт 10:00–22:00",
          "position": {
            "lat": 49.99452323107966, "lng": 36.23304419834246
          }
        }
      ]
    },
    {
      "odessa": [
        {
          "name": "Gagarinn Plaza",
          "address": "Пироговський провулок, 8, Одеса, Одеська область, 65000",
          "pickup": null,
          "phone": "0933300989",
          "work-time": "Пн-Пт 10:00–22:00",
          "position": {
            "lat": 46.432380499529884, "lng": 30.761951218702364
          }
        },
        {
          "name": "Ст. м. «Минская»",
          "address": "Пироговський провулок, 8, Одеса, Одеська область, 65000",
          "pickup": null,
          "phone": "0487725787",
          "work-time": "Пн-Пт 10:00–21:00",
          "position": {
            "lat": 46.462838504495394, "lng": 30.749452924659746
          }
        }
      ]
    }
  ]

}